
******2016/8/19 20:07:41******

+GPSRD:$GPGGA,120650.000,2236.85561,N,11408.65906,E,1,07,1.2,43.1,M,,M,,0000*7A
$GPRMC,120650.000,A,2236.85561,N,11408.65906,E,0.00,0.00,190816,,,A*63
$GPVTG,0.00,T,,M,0.00,N,0.00,K,A*3D

+GPSRD:$GPGGA,120652.000,2236.85556,N,11408.65906,E,1,07,1.2,43.1,M,,M,,0000*7C
$GPRMC,120652.000,A,2236.85556,N,11408.65906,E,0.00,0.00,190816,,,A*65
$GPVTG,0.00,T,,M,0.00,N,0.00,K,A*3D

+GPSRD:$GPGGA,120654.000,2236.85551,N,11408.65907,E,1,07,1.2,43.1,M,,M,,0000*7C
$GPGSA,A,3,02,21,20,29,05,13,15,,,,,,2.4,1.2,2.1*3F
$GPGSV,2,1,08,02,31,131,14,21,23,320,26,20,47,338,25,29,44,248,29*73
$GPGSV,2,2,08,05,34,052,24,13,56,028,32,15,74,299,32,24,29,171,*76
$GPRMC,120654.000,A,2236.85551,N,11408.65907,E,0.00,0.00,190816,,,A*65
$GPVTG,0.00,T,,M,0.00,N,0.00,K,A*3D

+GPSRD:$GPGGA,120656.000,2236.85545,N,11408.65909,E,1,07,1.2,43.1,M,,M,,0000*75
$GPRMC,120656.000,A,2236.85545,N,11408.65909,E,0.00,0.00,190816,,,A*6C
$GPVTG,0.00,T,,M,0.00,N,0.00,K,A*3D

+GPSRD:$GPGGA,120658.000,2236.85542,N,11408.65910,E,1,07,1.2,43.1,M,,M,,0000*74
$GPRMC,120658.000,A,2236.85542,N,11408.65910,E,0.00,0.00,190816,,,A*6D
$GPVTG,0.00,T,,M,0.00,N,0.00,K,A*3D

+GPSRD:$GPGGA,120700.000,2236.85542,N,11408.65908,E,1,07,1.2,43.1,M,,M,,0000*71
$GPRMC,120700.000,A,2236.85542,N,11408.65908,E,0.00,0.00,190816,,,A*68
$GPVTG,0.00,T,,M,0.00,N,0.00,K,A*3D

+GPSRD:$GPGGA,120702.000,2236.85543,N,11408.65907,E,1,07,1.2,43.2,M,,M,,0000*7E
$GPRMC,120702.000,A,2236.85543,N,11408.65907,E,0.00,0.00,190816,,,A*64
$GPVTG,0.00,T,,M,0.00,N,0.00,K,A*3D

+GPSRD:$GPGGA,120704.000,2236.85542,N,11408.65906,E,1,07,1.2,43.3,M,,M,,0000*79
$GPGSA,A,3,02,21,20,29,05,13,15,,,,,,2.4,1.2,2.1*3F
$GPGSV,2,1,08,02,31,131,14,21,23,320,26,20,47,338,24,29,44,248,29*72
$GPGSV,2,2,08,05,34,052,22,13,56,028,32,15,74,299,32,24,29,171,*70
$GPRMC,120704.000,A,2236.85542,N,11408.65906,E,0.00,0.00,190816,,,A*62
$GPVTG,0.00,T,,M,0.00,N,0.00,K,A*3D

+GPSRD:$GPGGA,120706.000,2236.85542,N,11408.65905,E,1,07,1.2,43.4,M,,M,,0000*7F
$GPRMC,120706.000,A,2236.85542,N,11408.65905,E,0.00,0.00,190816,,,A*63
$GPVTG,0.00,T,,M,0.00,N,0.00,K,A*3D

+GPSRD:$GPGGA,120708.000,2236.85541,N,11408.65904,E,1,07,1.2,43.5,M,,M,,0000*72
$GPRMC,120708.000,A,2236.85541,N,11408.65904,E,0.00,0.00,190816,,,A*6F
$GPVTG,0.00,T,,M,0.00,N,0.00,K,A*3D

+GPSRD:$GPGGA,120710.000,2236.85541,N,11408.65904,E,1,07,1.2,43.6,M,,M,,0000*78
$GPRMC,120710.000,A,2236.85541,N,11408.65904,E,0.00,0.00,190816,,,A*66
$GPVTG,0.00,T,,M,0.00,N,0.00,K,A*3D

+GPSRD:$GPGGA,120712.000,2236.85541,N,11408.65903,E,1,06,1.8,43.6,M,,M,,0000*76
$GPRMC,120712.000,A,2236.85541,N,11408.65903,E,0.00,0.00,190816,,,A*63
$GPVTG,0.00,T,,M,0.00,N,0.00,K,A*3D

+GPSRD:$GPGGA,120714.000,2236.85541,N,11408.65904,E,1,07,1.1,43.6,M,,M,,0000*7F
$GPGSA,A,3,02,21,20,29,05,13,15,,,,,,2.4,1.1,2.1*3C
$GPGSV,2,1,08,02,31,131,14,21,23,320,26,20,47,339,24,29,44,248,31*7A
$GPGSV,2,2,08,05,34,052,21,13,56,028,31,15,74,300,32,24,29,170,*70
$GPRMC,120714.000,A,2236.85541,N,11408.65904,E,0.00,0.00,190816,,,A*62
$GPVTG,0.00,T,,M,0.00,N,0.00,K,A*3D

+GPSRD:$GPGGA,120716.000,2236.85539,N,11408.65904,E,1,07,1.1,43.6,M,,M,,0000*72
$GPRMC,120716.000,A,2236.85539,N,11408.65904,E,0.00,0.00,190816,,,A*6F
$GPVTG,0.00,T,,M,0.00,N,0.00,K,A*3D

+GPSRD:$GPGGA,120718.000,2236.85538,N,11408.65905,E,1,07,1.1,43.6,M,,M,,0000*7C
$GPRMC,120718.000,A,2236.85538,N,11408.65905,E,0.00,0.00,190816,,,A*61
$GPVTG,0.00,T,,M,0.00,N,0.00,K,A*3D

+GPSRD:$GPGGA,120720.000,2236.85537,N,11408.65905,E,1,06,1.8,43.6,M,,M,,0000*70
$GPRMC,120720.000,A,2236.85537,N,11408.65905,E,0.00,0.00,190816,,,A*65
$GPVTG,0.00,T,,M,0.00,N,0.00,K,A*3D

+GPSRD:$GPGGA,120722.000,2236.85539,N,11408.65905,E,1,06,1.8,43.6,M,,M,,0000*7C
$GPRMC,120722.000,A,2236.85539,N,11408.65905,E,0.00,0.00,190816,,,A*69
$GPVTG,0.00,T,,M,0.00,N,0.00,K,A*3D

+GPSRD:$GPGGA,120724.000,2236.85542,N,11408.65906,E,1,06,1.8,43.6,M,,M,,0000*75
$GPGSA,A,3,21,20,29,05,13,15,,,,,,,3.2,1.8,2.6*37
$GPGSV,2,1,08,02,31,131,14,21,23,320,24,20,47,339,27,29,44,248,30*7A
$GPGSV,2,2,08,05,34,052,21,13,56,028,31,15,74,300,31,24,30,170,*7B
$GPRMC,120724.000,A,2236.85542,N,11408.65906,E,0.00,0.00,190816,,,A*60
$GPVTG,0.00,T,,M,0.00,N,0.00,K,A*3D

+GPSRD:$GPGGA,120726.000,2236.85541,N,11408.65906,E,1,07,1.1,43.6,M,,M,,0000*7C
$GPRMC,120726.000,A,2236.85541,N,11408.65906,E,0.00,0.00,190816,,,A*61
$GPVTG,0.00,T,,M,0.00,N,0.00,K,A*3D

+GPSRD:$GPGGA,120728.000,2236.85541,N,11408.65905,E,1,07,1.1,43.6,M,,M,,0000*71
$GPRMC,120728.000,A,2236.85541,N,11408.65905,E,0.00,0.00,190816,,,A*6C
$GPVTG,0.00,T,,M,0.00,N,0.00,K,A*3D

+GPSRD:$GPGGA,120730.000,2236.85542,N,11408.65904,E,1,07,1.1,43.6,M,,M,,0000*7A
$GPRMC,120730.000,A,2236.85542,N,11408.65904,E,0.00,0.00,190816,,,A*67
$GPVTG,0.00,T,,M,0.00,N,0.00,K,A*3D

+GPSRD:$GPGGA,120732.000,2236.85542,N,11408.65904,E,1,06,1.8,43.6,M,,M,,0000*70
$GPRMC,120732.000,A,2236.85542,N,11408.65904,E,0.00,0.00,190816,,,A*65
$GPVTG,0.00,T,,M,0.00,N,0.00,K,A*3D

+GPSRD:$GPGGA,120734.000,2236.85543,N,11408.65904,E,1,07,1.1,43.6,M,,M,,0000*7F
$GPGSA,A,3,02,21,20,29,05,13,15,,,,,,2.4,1.1,2.1*3C
$GPGSV,2,1,08,02,31,131,14,21,23,320,24,20,47,339,24,29,44,248,29*71
$GPGSV,2,2,08,05,34,052,22,13,56,028,29,15,74,300,32,24,30,170,*72
$GPRMC,120734.000,A,2236.85543,N,11408.65904,E,0.00,0.00,190816,,,A*62
$GPVTG,0.00,T,,M,0.00,N,0.00,K,A*3D

+GPSRD:$GPGGA,120736.000,2236.85543,N,11408.65903,E,1,06,1.8,43.5,M,,M,,0000*71
$GPRMC,120736.000,A,2236.85543,N,11408.65903,E,0.00,0.00,190816,,,A*67
$GPVTG,0.00,T,,M,0.00,N,0.00,K,A*3D

+GPSRD:$GPGGA,120738.000,2236.85543,N,11408.65903,E,1,06,1.8,43.6,M,,M,,0000*7C
$GPRMC,120738.000,A,2236.85543,N,11408.65903,E,0.00,0.00,190816,,,A*69
$GPVTG,0.00,T,,M,0.00,N,0.00,K,A*3D

+GPSRD:$GPGGA,120740.000,2236.85543,N,11408.65902,E,1,06,1.8,43.6,M,,M,,0000*72
$GPRMC,120740.000,A,2236.85543,N,11408.65902,E,0.00,0.00,190816,,,A*67
$GPVTG,0.00,T,,M,0.00,N,0.00,K,A*3D

+GPSRD:$GPGGA,120742.000,2236.85543,N,11408.65903,E,1,06,1.8,43.6,M,,M,,0000*71
$GPRMC,120742.000,A,2236.85543,N,11408.65903,E,0.00,0.00,190816,,,A*64
$GPVTG,0.00,T,,M,0.00,N,0.00,K,A*3D

+GPSRD:$GPGGA,120744.000,2236.85544,N,11408.65903,E,1,06,1.8,43.6,M,,M,,0000*70
$GPGSA,A,3,21,20,29,05,13,15,,,,,,,3.2,1.8,2.6*37
$GPGSV,2,1,08,02,31,131,13,21,23,320,21,20,47,339,22,29,44,248,31*7C
$GPGSV,2,2,08,05,34,052,24,13,56,028,28,15,74,301,31,24,30,170,*77
$GPRMC,120744.000,A,2236.85544,N,11408.65903,E,0.00,0.00,190816,,,A*65
$GPVTG,0.00,T,,M,0.00,N,0.00,K,A*3D
